{
  "name": "mashup",
  "type": "FeatureCollection",
  "features": [
    {
      "type": "Feature",
      "geometry": {
        "type": "Point",
        "coordinates": [
          -112.066564,
          33.445081
        ]
      },
      "properties": {
        "Class": "Majors",
        "League": "Major League Baseball",
        "Team": "Arizona Diamondbacks",
        "Ballpark": "Chase Field",
        "Lat": "33.445081",
        "Long": "-112.066564"
      }
    },
    {
      "type": "Feature",
      "geometry": {
        "type": "Point",
        "coordinates": [
          -84.468,
          33.89
        ]
      },
      "properties": {
        "Class": "Majors",
        "League": "Major League Baseball",
        "Team": "Atlanta Braves",
        "Ballpark": "SunTrust Park",
        "Lat": "33.89",
        "Long": "-84.468"
      }
    },
    {
      "type": "Feature",
      "geometry": {
        "type": "Point",
        "coordinates": [
          -76.621914,
          39.283487
        ]
      },
      "properties": {
        "Class": "Majors",
        "League": "Major League Baseball",
        "Team": "Baltimore Orioles",
        "Ballpark": "Oriole Park at Camden Yards",
        "Lat": "39.283487",
        "Long": "-76.621914"
      }
    },
    {
      "type": "Feature",
      "geometry": {
        "type": "Point",
        "coordinates": [
          -71.097757,
          42.346202
        ]
      },
      "properties": {
        "Class": "Majors",
        "League": "Major League Baseball",
        "Team": "Boston Red Sox",
        "Ballpark": "Fenway Park",
        "Lat": "42.346202",
        "Long": "-71.097757"
      }
    },
    {
      "type": "Feature",
      "geometry": {
        "type": "Point",
        "coordinates": [
          -87.65581,
          41.947904
        ]
      },
      "properties": {
        "Class": "Majors",
        "League": "Major League Baseball",
        "Team": "Chicago Cubs",
        "Ballpark": "Wrigley Field",
        "Lat": "41.947904",
        "Long": "-87.65581"
      }
    },
    {
      "type": "Feature",
      "geometry": {
        "type": "Point",
        "coordinates": [
          -87.634206,
          41.830189
        ]
      },
      "properties": {
        "Class": "Majors",
        "League": "Major League Baseball",
        "Team": "Chicago White Sox",
        "Ballpark": "Guaranteed Rate Field",
        "Lat": "41.830189",
        "Long": "-87.634206"
      }
    },
    {
      "type": "Feature",
      "geometry": {
        "type": "Point",
        "coordinates": [
          -84.509007,
          39.096549
        ]
      },
      "properties": {
        "Class": "Majors",
        "League": "Major League Baseball",
        "Team": "Cincinnati Reds",
        "Ballpark": "Great American Ball Park",
        "Lat": "39.096549",
        "Long": "-84.509007"
      }
    },
    {
      "type": "Feature",
      "geometry": {
        "type": "Point",
        "coordinates": [
          -81.685286,
          41.495506
        ]
      },
      "properties": {
        "Class": "Majors",
        "League": "Major League Baseball",
        "Team": "Cleveland Indians",
        "Ballpark": "Progressive Field",
        "Lat": "41.495506",
        "Long": "-81.685286"
      }
    },
    {
      "type": "Feature",
      "geometry": {
        "type": "Point",
        "coordinates": [
          -104.99414,
          39.755683
        ]
      },
      "properties": {
        "Class": "Majors",
        "League": "Major League Baseball",
        "Team": "Colorado Rockies",
        "Ballpark": "Coors Field",
        "Lat": "39.755683",
        "Long": "-104.99414"
      }
    },
    {
      "type": "Feature",
      "geometry": {
        "type": "Point",
        "coordinates": [
          -83.04903,
          42.339474
        ]
      },
      "properties": {
        "Class": "Majors",
        "League": "Major League Baseball",
        "Team": "Detroit Tigers",
        "Ballpark": "Comerica Park",
        "Lat": "42.339474",
        "Long": "-83.049027"
      }
    },
    {
      "type": "Feature",
      "geometry": {
        "type": "Point",
        "coordinates": [
          -80.219614,
          25.778058
        ]
      },
      "properties": {
        "Class": "Majors",
        "League": "Major League Baseball",
        "Team": "Miami Marlins",
        "Ballpark": "Marlins Park",
        "Lat": "25.778058",
        "Long": "-80.219614"
      }
    },
    {
      "type": "Feature",
      "geometry": {
        "type": "Point",
        "coordinates": [
          -95.35632,
          29.756778
        ]
      },
      "properties": {
        "Class": "Majors",
        "League": "Major League Baseball",
        "Team": "Houston Astros",
        "Ballpark": "Minute Maid Park",
        "Lat": "29.756778",
        "Long": "-95.356324"
      }
    },
    {
      "type": "Feature",
      "geometry": {
        "type": "Point",
        "coordinates": [
          -94.480817,
          39.051221
        ]
      },
      "properties": {
        "Class": "Majors",
        "League": "Major League Baseball",
        "Team": "Kansas City Royals",
        "Ballpark": "Kauffman Stadium",
        "Lat": "39.051221",
        "Long": "-94.480817"
      }
    },
    {
      "type": "Feature",
      "geometry": {
        "type": "Point",
        "coordinates": [
          -117.883194,
          33.799925
        ]
      },
      "properties": {
        "Class": "Majors",
        "League": "Major League Baseball",
        "Team": "Los Angeles Angels of Anaheim",
        "Ballpark": "Angels Stadium",
        "Lat": "33.799925",
        "Long": "-117.883194"
      }
    },
    {
      "type": "Feature",
      "geometry": {
        "type": "Point",
        "coordinates": [
          -118.24026,
          34.073432
        ]
      },
      "properties": {
        "Class": "Majors",
        "League": "Major League Baseball",
        "Team": "Los Angeles Dodgers",
        "Ballpark": "Dodger Stadium",
        "Lat": "34.073432",
        "Long": "-118.24026"
      }
    },
    {
      "type": "Feature",
      "geometry": {
        "type": "Point",
        "coordinates": [
          -87.971303,
          43.028478
        ]
      },
      "properties": {
        "Class": "Majors",
        "League": "Major League Baseball",
        "Team": "Milwaukee Brewers",
        "Ballpark": "Miller Park",
        "Lat": "43.028478",
        "Long": "-87.971303"
      }
    },
    {
      "type": "Feature",
      "geometry": {
        "type": "Point",
        "coordinates": [
          -93.278333,
          44.981667
        ]
      },
      "properties": {
        "Class": "Majors",
        "League": "Major League Baseball",
        "Team": "Minnesota Twins",
        "Ballpark": "Target Field",
        "Lat": "44.981667",
        "Long": "-93.278333"
      }
    },
    {
      "type": "Feature",
      "geometry": {
        "type": "Point",
        "coordinates": [
          -73.845833,
          40.756944
        ]
      },
      "properties": {
        "Class": "Majors",
        "League": "Major League Baseball",
        "Team": "New York Mets",
        "Ballpark": "Citi Field",
        "Lat": "40.756944",
        "Long": "-73.845833"
      }
    },
    {
      "type": "Feature",
      "geometry": {
        "type": "Point",
        "coordinates": [
          -73.928428,
          40.826918
        ]
      },
      "properties": {
        "Class": "Majors",
        "League": "Major League Baseball",
        "Team": "New York Yankees",
        "Ballpark": "Yankee Stadium",
        "Lat": "40.826918",
        "Long": "-73.928428"
      }
    },
    {
      "type": "Feature",
      "geometry": {
        "type": "Point",
        "coordinates": [
          -122.201158,
          37.751262
        ]
      },
      "properties": {
        "Class": "Majors",
        "League": "Major League Baseball",
        "Team": "Oakland Athletics",
        "Ballpark": "Network Associates Coliseum",
        "Lat": "37.751262",
        "Long": "-122.201158"
      }
    },
    {
      "type": "Feature",
      "geometry": {
        "type": "Point",
        "coordinates": [
          -75.16653,
          39.905437
        ]
      },
      "properties": {
        "Class": "Majors",
        "League": "Major League Baseball",
        "Team": "Philadelphia Phillies",
        "Ballpark": "Citizens Bank Park",
        "Lat": "39.905437",
        "Long": "-75.166535"
      }
    },
    {
      "type": "Feature",
      "geometry": {
        "type": "Point",
        "coordinates": [
          -80.006626,
          40.447265
        ]
      },
      "properties": {
        "Class": "Majors",
        "League": "Major League Baseball",
        "Team": "Pittsburgh Pirates",
        "Ballpark": "PNC Park",
        "Lat": "40.447265",
        "Long": "-80.006626"
      }
    },
    {
      "type": "Feature",
      "geometry": {
        "type": "Point",
        "coordinates": [
          -117.15732,
          32.706922
        ]
      },
      "properties": {
        "Class": "Majors",
        "League": "Major League Baseball",
        "Team": "San Diego Padres",
        "Ballpark": "PETCO Park",
        "Lat": "32.706922",
        "Long": "-117.157324"
      }
    },
    {
      "type": "Feature",
      "geometry": {
        "type": "Point",
        "coordinates": [
          -122.38959,
          37.778473
        ]
      },
      "properties": {
        "Class": "Majors",
        "League": "Major League Baseball",
        "Team": "San Francisco Giants",
        "Ballpark": "AT&T Park",
        "Lat": "37.778473",
        "Long": "-122.389595"
      }
    },
    {
      "type": "Feature",
      "geometry": {
        "type": "Point",
        "coordinates": [
          -122.33288,
          47.59111
        ]
      },
      "properties": {
        "Class": "Majors",
        "League": "Major League Baseball",
        "Team": "Seattle Mariners",
        "Ballpark": "Safeco Field",
        "Lat": "47.59111",
        "Long": "-122.33288"
      }
    },
    {
      "type": "Feature",
      "geometry": {
        "type": "Point",
        "coordinates": [
          -90.192793,
          38.624005
        ]
      },
      "properties": {
        "Class": "Majors",
        "League": "Major League Baseball",
        "Team": "St. Louis Cardinals",
        "Ballpark": "Busch Stadium",
        "Lat": "38.624005",
        "Long": "-90.192793"
      }
    },
    {
      "type": "Feature",
      "geometry": {
        "type": "Point",
        "coordinates": [
          -82.653246,
          27.768016
        ]
      },
      "properties": {
        "Class": "Majors",
        "League": "Major League Baseball",
        "Team": "Tampa Bay Devil Rays",
        "Ballpark": "Tropicana Field",
        "Lat": "27.768016",
        "Long": "-82.653246"
      }
    },
    {
      "type": "Feature",
      "geometry": {
        "type": "Point",
        "coordinates": [
          -97.083047,
          32.75155
        ]
      },
      "properties": {
        "Class": "Majors",
        "League": "Major League Baseball",
        "Team": "Texas Rangers",
        "Ballpark": "Globe Life Park in Arlington",
        "Lat": "32.75155",
        "Long": "-97.083047"
      }
    },
    {
      "type": "Feature",
      "geometry": {
        "type": "Point",
        "coordinates": [
          -79.38921,
          43.641305
        ]
      },
      "properties": {
        "Class": "Majors",
        "League": "Major League Baseball",
        "Team": "Toronto Blue Jays",
        "Ballpark": "Rogers Centre",
        "Lat": "43.641305",
        "Long": "-79.389214"
      }
    },
    {
      "type": "Feature",
      "geometry": {
        "type": "Point",
        "coordinates": [
          -77.00762,
          38.8727
        ]
      },
      "properties": {
        "Class": "Majors",
        "League": "Major League Baseball",
        "Team": "Washington Nationals",
        "Ballpark": "Nationals Park",
        "Lat": "38.8727",
        "Long": "-77.00762"
      }
    },
    {
      "type": "Feature",
      "geometry": {
        "type": "Point",
        "coordinates": [
          -124.395447,
          43.205176
        ]
      },
      "properties": {
        "Class": "Golf",
        "Rank": "1",
        "Name": "1. Pacific Dunes",
        "Lat": 43.205176,
        "Long": -124.395447,
        "marker-color": "#007f00"
      }
    },
    {
      "type": "Feature",
      "geometry": {
        "type": "Point",
        "coordinates": [
          -121.948639,
          36.567739
        ]
      },
      "properties": {
        "Class": "Golf",
        "Rank": "2",
        "Name": "2. Pebble Beach Golf Links",
        "Lat": 36.567739,
        "Long": -121.948639,
        "marker-color": "#007f00"
      }
    },
    {
      "type": "Feature",
      "geometry": {
        "type": "Point",
        "coordinates": [
          -79.46806,
          35.187979
        ]
      },
      "properties": {
        "Class": "Golf",
        "Rank": "3",
        "Name": "3. Pinehurst Resort (No. 2)",
        "Lat": 35.187979,
        "Long": -79.46806,
        "marker-color": "#007f00"
      }
    },
    {
      "type": "Feature",
      "geometry": {
        "type": "Point",
        "coordinates": [
          -87.73613,
          43.853825
        ]
      },
      "properties": {
        "Class": "Golf",
        "Rank": "4",
        "Name": "4. Whistling Straits Golf Club (Straits)",
        "Lat": 43.853825,
        "Long": -87.73613,
        "marker-color": "#007f00"
      }
    },
    {
      "type": "Feature",
      "geometry": {
        "type": "Point",
        "coordinates": [
          -80.001326,
          32.613406
        ]
      },
      "properties": {
        "Class": "Golf",
        "Rank": "5",
        "Name": "5. The Ocean Course at Kiawah Island Resort",
        "Lat": 32.613406,
        "Long": -80.001326,
        "marker-color": "#007f00"
      }
    },
    {
      "type": "Feature",
      "geometry": {
        "type": "Point",
        "coordinates": [
          -73.458366,
          40.746379
        ]
      },
      "properties": {
        "Class": "Golf",
        "Rank": "6",
        "Name": "6. Bethpage State Park (Black)",
        "Lat": 40.746379,
        "Long": -73.458366,
        "marker-color": "#007f00"
      }
    },
    {
      "type": "Feature",
      "geometry": {
        "type": "Point",
        "coordinates": [
          -81.395001,
          30.197811
        ]
      },
      "properties": {
        "Class": "Golf",
        "Rank": "7",
        "Name": "7. TPC Sawgrass (Players Stadium)",
        "Lat": 30.197811,
        "Long": -81.395001,
        "marker-color": "#007f00"
      }
    },
    {
      "type": "Feature",
      "geometry": {
        "type": "Point",
        "coordinates": [
          -124.38983,
          43.193886
        ]
      },
      "properties": {
        "Class": "Golf",
        "Rank": "8",
        "Name": "8. Bandon Dunes",
        "Lat": 43.193886,
        "Long": -124.38983,
        "marker-color": "#007f00"
      }
    },
    {
      "type": "Feature",
      "geometry": {
        "type": "Point",
        "coordinates": [
          -124.398236,
          43.18581
        ]
      },
      "properties": {
        "Class": "Golf",
        "Rank": "9",
        "Name": "9. Old Macdonald",
        "Lat": 43.18581,
        "Long": -124.398236,
        "marker-color": "#007f00"
      }
    },
    {
      "type": "Feature",
      "geometry": {
        "type": "Point",
        "coordinates": [
          -121.956554,
          36.585201
        ]
      },
      "properties": {
        "Class": "Golf",
        "Rank": "10",
        "Name": "10. Spyglass Hill Golf Course",
        "Lat": 36.585201,
        "Long": -121.956554,
        "marker-color": "#007f00"
      }
    },
    {
      "type": "Feature",
      "geometry": {
        "type": "Point",
        "coordinates": [
          -87.777672,
          43.729367
        ]
      },
      "properties": {
        "Class": "Golf",
        "Rank": "11",
        "Name": "11. Blackwolf Run (River)",
        "Lat": 43.729367,
        "Long": -87.777672,
        "marker-color": "#007f00"
      }
    },
    {
      "type": "Feature",
      "geometry": {
        "type": "Point",
        "coordinates": [
          -80.813552,
          32.137055
        ]
      },
      "properties": {
        "Class": "Golf",
        "Rank": "12",
        "Name": "12. Harbour Town Golf Links",
        "Lat": 32.137055,
        "Long": -80.813552,
        "marker-color": "#007f00"
      }
    },
    {
      "type": "Feature",
      "geometry": {
        "type": "Point",
        "coordinates": [
          -122.024975,
          37.004198
        ]
      },
      "properties": {
        "Class": "Golf",
        "Rank": "13",
        "Name": "13. Pasatiempo Golf Club",
        "Lat": 37.004198,
        "Long": -122.024975,
        "marker-color": "#007f00"
      }
    },
    {
      "type": "Feature",
      "geometry": {
        "type": "Point",
        "coordinates": [
          -122.57575,
          47.203185
        ]
      },
      "properties": {
        "Class": "Golf",
        "Rank": "14",
        "Name": "14. Chambers Bay Golf Course",
        "Lat": 47.203185,
        "Long": -122.57575,
        "marker-color": "#007f00"
      }
    },
    {
      "type": "Feature",
      "geometry": {
        "type": "Point",
        "coordinates": [
          -124.385147,
          43.207053
        ]
      },
      "properties": {
        "Class": "Golf",
        "Rank": "15",
        "Name": "15. Bandon Trails",
        "Lat": 43.207053,
        "Long": -124.385147,
        "marker-color": "#007f00"
      }
    },
    {
      "type": "Feature",
      "geometry": {
        "type": "Point",
        "coordinates": [
          -159.464922,
          22.21204
        ]
      },
      "properties": {
        "Class": "Golf",
        "Rank": "16",
        "Name": "16. The Prince at Princeville",
        "Lat": 22.21204,
        "Long": -159.464922,
        "marker-color": "#007f00"
      }
    },
    {
      "type": "Feature",
      "geometry": {
        "type": "Point",
        "coordinates": [
          -115.111656,
          36.25784
        ]
      },
      "properties": {
        "Class": "Golf",
        "Rank": "17",
        "Name": "17. Shadow Creek",
        "Lat": 36.25784,
        "Long": -115.111656,
        "marker-color": "#007f00"
      }
    },
    {
      "type": "Feature",
      "geometry": {
        "type": "Point",
        "coordinates": [
          -156.661134,
          21.000247
        ]
      },
      "properties": {
        "Class": "Golf",
        "Rank": "18",
        "Name": "18. Kapalua Resort (Plantation)",
        "Lat": 21.000247,
        "Long": -156.661134,
        "marker-color": "#007f00"
      }
    },
    {
      "type": "Feature",
      "geometry": {
        "type": "Point",
        "coordinates": [
          -82.483206,
          28.678277
        ]
      },
      "properties": {
        "Class": "Golf",
        "Rank": "19",
        "Name": "19. World Woods (Pine Barrens)",
        "Lat": 28.678277,
        "Long": -82.483206,
        "marker-color": "#007f00"
      }
    },
    {
      "type": "Feature",
      "geometry": {
        "type": "Point",
        "coordinates": [
          -111.856356,
          33.746395
        ]
      },
      "properties": {
        "Class": "Golf",
        "Rank": "20",
        "Name": "20. Troon North Golf Club (Pinnacle)",
        "Lat": 33.746395,
        "Long": -111.856356,
        "marker-color": "#007f00"
      }
    },
    {
      "type": "Feature",
      "geometry": {
        "type": "Point",
        "coordinates": [
          -87.955384,
          41.674675
        ]
      },
      "properties": {
        "Class": "Golf",
        "Rank": "21",
        "Name": "21. Cog Hill Golf Club (No. 4)",
        "Lat": 41.674675,
        "Long": -87.955384,
        "marker-color": "#007f00"
      }
    },
    {
      "type": "Feature",
      "geometry": {
        "type": "Point",
        "coordinates": [
          -155.822536,
          20.00037
        ]
      },
      "properties": {
        "Class": "Golf",
        "Rank": "22",
        "Name": "22. Mauna Kea Golf Course",
        "Lat": 20.00037,
        "Long": -155.822536,
        "marker-color": "#007f00"
      }
    },
    {
      "type": "Feature",
      "geometry": {
        "type": "Point",
        "coordinates": [
          -81.399765,
          31.156408
        ]
      },
      "properties": {
        "Class": "Golf",
        "Rank": "23",
        "Name": "23. Sea Island Golf Club (Seaside)",
        "Lat": 31.156408,
        "Long": -81.399765,
        "marker-color": "#007f00"
      }
    },
    {
      "type": "Feature",
      "geometry": {
        "type": "Point",
        "coordinates": [
          -79.824708,
          38.003112
        ]
      },
      "properties": {
        "Class": "Golf",
        "Rank": "24",
        "Name": "24. The Homestead (Cascades)",
        "Lat": 38.003112,
        "Long": -79.824708,
        "marker-color": "#007f00"
      }
    },
    {
      "type": "Feature",
      "geometry": {
        "type": "Point",
        "coordinates": [
          -117.248111,
          32.891948
        ]
      },
      "properties": {
        "Class": "Golf",
        "Rank": "25",
        "Name": "25. Torrey Pines Golf Course (South)",
        "Lat": 32.891948,
        "Long": -117.248111,
        "marker-color": "#007f00"
      }
    },
    {
      "type": "Feature",
      "geometry": {
        "type": "Point",
        "coordinates": [
          -88.904285,
          30.644927
        ]
      },
      "properties": {
        "Class": "Golf",
        "Rank": "26",
        "Name": "26. Fallen Oak at Beau Rivage Resort",
        "Lat": 30.644927,
        "Long": -88.904285,
        "marker-color": "#007f00"
      }
    },
    {
      "type": "Feature",
      "geometry": {
        "type": "Point",
        "coordinates": [
          -79.153104,
          33.451513
        ]
      },
      "properties": {
        "Class": "Golf",
        "Rank": "27",
        "Name": "27. Caledonia Golf and Fish Club",
        "Lat": 33.451513,
        "Long": -79.153104,
        "marker-color": "#007f00"
      }
    },
    {
      "type": "Feature",
      "geometry": {
        "type": "Point",
        "coordinates": [
          -86.244049,
          44.458351
        ]
      },
      "properties": {
        "Class": "Golf",
        "Rank": "28",
        "Name": "28. Arcadia Bluffs Golf Club",
        "Lat": 44.458351,
        "Long": -86.244049,
        "marker-color": "#007f00"
      }
    },
    {
      "type": "Feature",
      "geometry": {
        "type": "Point",
        "coordinates": [
          -88.399086,
          43.247797
        ]
      },
      "properties": {
        "Class": "Golf",
        "Rank": "29",
        "Name": "29. Erin Hills Golf Course",
        "Lat": 43.247797,
        "Long": -88.399086,
        "marker-color": "#007f00"
      }
    },
    {
      "type": "Feature",
      "geometry": {
        "type": "Point",
        "coordinates": [
          -118.340886,
          33.726463
        ]
      },
      "properties": {
        "Class": "Golf",
        "Rank": "30",
        "Name": "30. Trump National Golf Club Los Angeles",
        "Lat": 33.726463,
        "Long": -118.340886,
        "marker-color": "#007f00"
      }
    },
    {
      "type": "Feature",
      "geometry": {
        "type": "Point",
        "coordinates": [
          -106.320963,
          35.207144
        ]
      },
      "properties": {
        "Class": "Golf",
        "Rank": "31",
        "Name": "31. Paa-Ko Ridge Golf Club",
        "Lat": 35.207144,
        "Long": -106.320963,
        "marker-color": "#007f00"
      }
    },
    {
      "type": "Feature",
      "geometry": {
        "type": "Point",
        "coordinates": [
          -88.970375,
          32.756783
        ]
      },
      "properties": {
        "Class": "Golf",
        "Rank": "32",
        "Name": "32. Dancing Rabbit (Azaleas)",
        "Lat": 32.756783,
        "Long": -88.970375,
        "marker-color": "#007f00"
      }
    },
    {
      "type": "Feature",
      "geometry": {
        "type": "Point",
        "coordinates": [
          -84.534259,
          44.581115
        ]
      },
      "properties": {
        "Class": "Golf",
        "Rank": "33",
        "Name": "33. Forest Dunes Golf Club",
        "Lat": 44.581115,
        "Long": -84.534259,
        "marker-color": "#007f00"
      }
    },
    {
      "type": "Feature",
      "geometry": {
        "type": "Point",
        "coordinates": [
          -106.698618,
          39.686516
        ]
      },
      "properties": {
        "Class": "Golf",
        "Rank": "34",
        "Name": "34. Red Sky Ranch Golf Club (Norman)",
        "Lat": 39.686516,
        "Long": -106.698618,
        "marker-color": "#007f00"
      }
    },
    {
      "type": "Feature",
      "geometry": {
        "type": "Point",
        "coordinates": [
          -83.254223,
          33.412242
        ]
      },
      "properties": {
        "Class": "Golf",
        "Rank": "35",
        "Name": "35. The Golf Club at Cuscowilla",
        "Lat": 33.412242,
        "Long": -83.254223,
        "marker-color": "#007f00"
      }
    },
    {
      "type": "Feature",
      "geometry": {
        "type": "Point",
        "coordinates": [
          -80.408163,
          36.631165
        ]
      },
      "properties": {
        "Class": "Golf",
        "Rank": "36",
        "Name": "36. The Highland Course at Primland Resort",
        "Lat": 36.631165,
        "Long": -80.408163,
        "marker-color": "#007f00"
      }
    },
    {
      "type": "Feature",
      "geometry": {
        "type": "Point",
        "coordinates": [
          -111.692419,
          33.583449
        ]
      },
      "properties": {
        "Class": "Golf",
        "Rank": "37",
        "Name": "37. We-Ko-Pa Golf Club (Cholla)",
        "Lat": 33.583449,
        "Long": -111.692419,
        "marker-color": "#007f00"
      }
    },
    {
      "type": "Feature",
      "geometry": {
        "type": "Point",
        "coordinates": [
          -121.178255,
          44.185466
        ]
      },
      "properties": {
        "Class": "Golf",
        "Rank": "38",
        "Name": "38. Pronghorn Golf Club & Resort (Nicklaus)",
        "Lat": 44.185466,
        "Long": -121.178255,
        "marker-color": "#007f00"
      }
    },
    {
      "type": "Feature",
      "geometry": {
        "type": "Point",
        "coordinates": [
          -73.203321,
          42.704799
        ]
      },
      "properties": {
        "Class": "Golf",
        "Rank": "39",
        "Name": "39. Taconic Golf Club",
        "Lat": 42.704799,
        "Long": -73.203321,
        "marker-color": "#007f00"
      }
    },
    {
      "type": "Feature",
      "geometry": {
        "type": "Point",
        "coordinates": [
          -111.688213,
          33.596891
        ]
      },
      "properties": {
        "Class": "Golf",
        "Rank": "40",
        "Name": "40. We-Ko-Pa Golf Club (Saguaro)",
        "Lat": 33.596891,
        "Long": -111.688213,
        "marker-color": "#007f00"
      }
    },
    {
      "type": "Feature",
      "geometry": {
        "type": "Point",
        "coordinates": [
          -76.131402,
          39.542788
        ]
      },
      "properties": {
        "Class": "Golf",
        "Rank": "41",
        "Name": "41. Bulle Rock",
        "Lat": 39.542788,
        "Long": -76.131402,
        "marker-color": "#007f00"
      }
    },
    {
      "type": "Feature",
      "geometry": {
        "type": "Point",
        "coordinates": [
          -121.94129,
          36.613357
        ]
      },
      "properties": {
        "Class": "Golf",
        "Rank": "42",
        "Name": "42. The Links at Spanish Bay",
        "Lat": 36.613357,
        "Long": -121.94129,
        "marker-color": "#007f00"
      }
    },
    {
      "type": "Feature",
      "geometry": {
        "type": "Point",
        "coordinates": [
          -83.217745,
          33.427358
        ]
      },
      "properties": {
        "Class": "Golf",
        "Rank": "43",
        "Name": "43. Reynolds Plantation (Great Waters)",
        "Lat": 33.427358,
        "Long": -83.217745,
        "marker-color": "#007f00"
      }
    },
    {
      "type": "Feature",
      "geometry": {
        "type": "Point",
        "coordinates": [
          -106.049352,
          35.96255
        ]
      },
      "properties": {
        "Class": "Golf",
        "Rank": "44",
        "Name": "44. Black Mesa Golf Club",
        "Lat": 35.96255,
        "Long": -106.049352,
        "marker-color": "#007f00"
      }
    },
    {
      "type": "Feature",
      "geometry": {
        "type": "Point",
        "coordinates": [
          -121.451068,
          43.857833
        ]
      },
      "properties": {
        "Class": "Golf",
        "Rank": "45",
        "Name": "45. Crosswater at Sunriver Resort",
        "Lat": 43.857833,
        "Long": -121.451068,
        "marker-color": "#007f00"
      }
    },
    {
      "type": "Feature",
      "geometry": {
        "type": "Point",
        "coordinates": [
          -156.901116,
          20.741847
        ]
      },
      "properties": {
        "Class": "Golf",
        "Rank": "46",
        "Name": "46. The Challenge at Manele",
        "Lat": 20.741847,
        "Long": -156.901116,
        "marker-color": "#007f00"
      }
    },
    {
      "type": "Feature",
      "geometry": {
        "type": "Point",
        "coordinates": [
          -78.79725,
          33.759883
        ]
      },
      "properties": {
        "Class": "Golf",
        "Rank": "47",
        "Name": "47. Dunes Golf & Beach Club",
        "Lat": 33.759883,
        "Long": -78.79725,
        "marker-color": "#007f00"
      }
    },
    {
      "type": "Feature",
      "geometry": {
        "type": "Point",
        "coordinates": [
          -81.51083,
          28.464428
        ]
      },
      "properties": {
        "Class": "Golf",
        "Rank": "48",
        "Name": "48. Arnold Palmerâ€™s Bay Hill Club (Champ.)",
        "Lat": 28.464428,
        "Long": -81.51083,
        "marker-color": "#007f00"
      }
    },
    {
      "type": "Feature",
      "geometry": {
        "type": "Point",
        "coordinates": [
          -85.065079,
          45.362519
        ]
      },
      "properties": {
        "Class": "Golf",
        "Rank": "49",
        "Name": "49. Bay Harbor Golf Club (Links/Quarry)",
        "Lat": 45.362519,
        "Long": -85.065079,
        "marker-color": "#007f00"
      }
    },
    {
      "type": "Feature",
      "geometry": {
        "type": "Point",
        "coordinates": [
          -79.390941,
          35.198588
        ]
      },
      "properties": {
        "Class": "Golf",
        "Rank": "50",
        "Name": "50. Pine Needles Lodge and Golf Club",
        "Lat": 35.198588,
        "Long": -79.390941,
        "marker-color": "#007f00"
      }
    },
    {
      "type": "Feature",
      "geometry": {
        "type": "Point",
        "coordinates": [
          -80.890961,
          32.210768
        ]
      },
      "properties": {
        "Class": "Golf",
        "Rank": "51",
        "Name": "51. May River Golf Club at Palmetto Bluff",
        "Lat": 32.210768,
        "Long": -80.890961,
        "marker-color": "#007f00"
      }
    },
    {
      "type": "Feature",
      "geometry": {
        "type": "Point",
        "coordinates": [
          -111.875839,
          33.745468
        ]
      },
      "properties": {
        "Class": "Golf",
        "Rank": "52",
        "Name": "52. Troon North Golf Club (Monument)",
        "Lat": 33.745468,
        "Long": -111.875839,
        "marker-color": "#007f00"
      }
    },
    {
      "type": "Feature",
      "geometry": {
        "type": "Point",
        "coordinates": [
          -116.26344,
          33.651905
        ]
      },
      "properties": {
        "Class": "Golf",
        "Rank": "53",
        "Name": "53. PGA West (TPC Stadium)",
        "Lat": 33.651905,
        "Long": -116.26344,
        "marker-color": "#007f00"
      }
    },
    {
      "type": "Feature",
      "geometry": {
        "type": "Point",
        "coordinates": [
          -92.306957,
          47.581997
        ]
      },
      "properties": {
        "Class": "Golf",
        "Rank": "54",
        "Name": "54. The Quarry at Giants Ridge",
        "Lat": 47.581997,
        "Long": -92.306957,
        "marker-color": "#007f00"
      }
    },
    {
      "type": "Feature",
      "geometry": {
        "type": "Point",
        "coordinates": [
          -82.23685,
          40.08848
        ]
      },
      "properties": {
        "Class": "Golf",
        "Rank": "55",
        "Name": "55. Longaberger",
        "Lat": 40.08848,
        "Long": -82.23685,
        "marker-color": "#007f00"
      }
    },
    {
      "type": "Feature",
      "geometry": {
        "type": "Point",
        "coordinates": [
          -123.003831,
          45.614338
        ]
      },
      "properties": {
        "Class": "Golf",
        "Rank": "56",
        "Name": "56. Pumpkin Ridge Golf Club (Ghost Creek)",
        "Lat": 45.614338,
        "Long": -123.003831,
        "marker-color": "#007f00"
      }
    },
    {
      "type": "Feature",
      "geometry": {
        "type": "Point",
        "coordinates": [
          -93.209639,
          41.872948
        ]
      },
      "properties": {
        "Class": "Golf",
        "Rank": "57",
        "Name": "57. The Harvester Golf Club",
        "Lat": 41.872948,
        "Long": -93.209639,
        "marker-color": "#007f00"
      }
    },
    {
      "type": "Feature",
      "geometry": {
        "type": "Point",
        "coordinates": [
          -114.89223,
          35.974516
        ]
      },
      "properties": {
        "Class": "Golf",
        "Rank": "58",
        "Name": "58. Cascata",
        "Lat": 35.974516,
        "Long": -114.89223,
        "marker-color": "#007f00"
      }
    },
    {
      "type": "Feature",
      "geometry": {
        "type": "Point",
        "coordinates": [
          -76.697053,
          37.267069
        ]
      },
      "properties": {
        "Class": "Golf",
        "Rank": "59",
        "Name": "59. Golden Horseshoe Golf Club (Gold)",
        "Lat": 37.267069,
        "Long": -76.697053,
        "marker-color": "#007f00"
      }
    },
    {
      "type": "Feature",
      "geometry": {
        "type": "Point",
        "coordinates": [
          -75.538387,
          43.095468
        ]
      },
      "properties": {
        "Class": "Golf",
        "Rank": "60",
        "Name": "60. Atunyote at Turning Stone Resort",
        "Lat": 43.095468,
        "Long": -75.538387,
        "marker-color": "#007f00"
      }
    },
    {
      "type": "Feature",
      "geometry": {
        "type": "Point",
        "coordinates": [
          -75.577183,
          43.121535
        ]
      },
      "properties": {
        "Class": "Golf",
        "Rank": "61",
        "Name": "61. Shenandoah at Turning Stone Resort",
        "Lat": 43.121535,
        "Long": -75.577183,
        "marker-color": "#007f00"
      }
    },
    {
      "type": "Feature",
      "geometry": {
        "type": "Point",
        "coordinates": [
          -83.270488,
          33.471437
        ]
      },
      "properties": {
        "Class": "Golf",
        "Rank": "62",
        "Name": "62. Reynolds Plantation (Oconee)",
        "Lat": 33.471437,
        "Long": -83.270488,
        "marker-color": "#007f00"
      }
    },
    {
      "type": "Feature",
      "geometry": {
        "type": "Point",
        "coordinates": [
          -81.868701,
          36.064694
        ]
      },
      "properties": {
        "Class": "Golf",
        "Rank": "63",
        "Name": "63. Linville Golf Club",
        "Lat": 36.064694,
        "Long": -81.868701,
        "marker-color": "#007f00"
      }
    },
    {
      "type": "Feature",
      "geometry": {
        "type": "Point",
        "coordinates": [
          -121.636248,
          37.06754
        ]
      },
      "properties": {
        "Class": "Golf",
        "Rank": "64",
        "Name": "64. CordeValle",
        "Lat": 37.06754,
        "Long": -121.636248,
        "marker-color": "#007f00"
      }
    },
    {
      "type": "Feature",
      "geometry": {
        "type": "Point",
        "coordinates": [
          -114.060702,
          36.83639
        ]
      },
      "properties": {
        "Class": "Golf",
        "Rank": "65",
        "Name": "65. Wolf Creek Golf Club",
        "Lat": 36.83639,
        "Long": -114.060702,
        "marker-color": "#007f00"
      }
    },
    {
      "type": "Feature",
      "geometry": {
        "type": "Point",
        "coordinates": [
          -115.159507,
          36.125709
        ]
      },
      "properties": {
        "Class": "Golf",
        "Rank": "66",
        "Name": "66. Wynn Las Vegas",
        "Lat": 36.125709,
        "Long": -115.159507,
        "marker-color": "#007f00"
      }
    },
    {
      "type": "Feature",
      "geometry": {
        "type": "Point",
        "coordinates": [
          -97.855117,
          30.287495
        ]
      },
      "properties": {
        "Class": "Golf",
        "Rank": "67",
        "Name": "67. Barton Creek Resort (Fazio Canyons)",
        "Lat": 30.287495,
        "Long": -97.855117,
        "marker-color": "#007f00"
      }
    },
    {
      "type": "Feature",
      "geometry": {
        "type": "Point",
        "coordinates": [
          -97.187333,
          36.102168
        ]
      },
      "properties": {
        "Class": "Golf",
        "Rank": "68",
        "Name": "68. Karsten Creek Golf Club",
        "Lat": 36.102168,
        "Long": -97.187333,
        "marker-color": "#007f00"
      }
    },
    {
      "type": "Feature",
      "geometry": {
        "type": "Point",
        "coordinates": [
          -80.315723,
          37.790659
        ]
      },
      "properties": {
        "Class": "Golf",
        "Rank": "69",
        "Name": "69. The Greenbrier (Greenbrier)",
        "Lat": 37.790659,
        "Long": -80.315723,
        "marker-color": "#007f00"
      }
    },
    {
      "type": "Feature",
      "geometry": {
        "type": "Point",
        "coordinates": [
          -104.850683,
          38.78597
        ]
      },
      "properties": {
        "Class": "Golf",
        "Rank": "70",
        "Name": "70. The Broadmoor (East)",
        "Lat": 38.78597,
        "Long": -104.850683,
        "marker-color": "#007f00"
      }
    },
    {
      "type": "Feature",
      "geometry": {
        "type": "Point",
        "coordinates": [
          -86.619816,
          38.556539
        ]
      },
      "properties": {
        "Class": "Golf",
        "Rank": "71",
        "Name": "71. French Lick Resort (Pete Dye)",
        "Lat": 38.556539,
        "Long": -86.619816,
        "marker-color": "#007f00"
      }
    },
    {
      "type": "Feature",
      "geometry": {
        "type": "Point",
        "coordinates": [
          -87.828194,
          42.088589
        ]
      },
      "properties": {
        "Class": "Golf",
        "Rank": "72",
        "Name": "72. The Glen Club",
        "Lat": 42.088589,
        "Long": -87.828194,
        "marker-color": "#007f00"
      }
    },
    {
      "type": "Feature",
      "geometry": {
        "type": "Point",
        "coordinates": [
          -100.196278,
          40.956502
        ]
      },
      "properties": {
        "Class": "Golf",
        "Rank": "73",
        "Name": "73. Wild Horse Golf Club",
        "Lat": 40.956502,
        "Long": -100.196278,
        "marker-color": "#007f00"
      }
    },
    {
      "type": "Feature",
      "geometry": {
        "type": "Point",
        "coordinates": [
          -87.736731,
          43.860432
        ]
      },
      "properties": {
        "Class": "Golf",
        "Rank": "74",
        "Name": "74. Whistling Straits Golf Club (Irish)",
        "Lat": 43.860432,
        "Long": -87.736731,
        "marker-color": "#007f00"
      }
    },
    {
      "type": "Feature",
      "geometry": {
        "type": "Point",
        "coordinates": [
          -81.187592,
          29.608685
        ]
      },
      "properties": {
        "Class": "Golf",
        "Rank": "75",
        "Name": "75. Hammock Beach Resort (Ocean)",
        "Lat": 29.608685,
        "Long": -81.187592,
        "marker-color": "#007f00"
      }
    },
    {
      "type": "Feature",
      "geometry": {
        "type": "Point",
        "coordinates": [
          -82.76031,
          28.112906
        ]
      },
      "properties": {
        "Class": "Golf",
        "Rank": "76",
        "Name": "76. Innisbrook Resort (Copperhead)",
        "Lat": 28.112906,
        "Long": -82.76031,
        "marker-color": "#007f00"
      }
    },
    {
      "type": "Feature",
      "geometry": {
        "type": "Point",
        "coordinates": [
          -116.292086,
          33.682925
        ]
      },
      "properties": {
        "Class": "Golf",
        "Rank": "77",
        "Name": "77. La Quinta Resort (Mountain)",
        "Lat": 33.682925,
        "Long": -116.292086,
        "marker-color": "#007f00"
      }
    },
    {
      "type": "Feature",
      "geometry": {
        "type": "Point",
        "coordinates": [
          -100.876808,
          42.663756
        ]
      },
      "properties": {
        "Class": "Golf",
        "Rank": "78",
        "Name": "78. The Prairie Club (Dunes)",
        "Lat": 42.663756,
        "Long": -100.876808,
        "marker-color": "#007f00"
      }
    },
    {
      "type": "Feature",
      "geometry": {
        "type": "Point",
        "coordinates": [
          -107.517807,
          39.586574
        ]
      },
      "properties": {
        "Class": "Golf",
        "Rank": "79",
        "Name": "79. Lakota Canyon Ranch & Golf Club",
        "Lat": 39.586574,
        "Long": -107.517807,
        "marker-color": "#007f00"
      }
    },
    {
      "type": "Feature",
      "geometry": {
        "type": "Point",
        "coordinates": [
          -74.544382,
          39.36745
        ]
      },
      "properties": {
        "Class": "Golf",
        "Rank": "80",
        "Name": "80. Atlantic City Country Club",
        "Lat": 39.36745,
        "Long": -74.544382,
        "marker-color": "#007f00"
      }
    },
    {
      "type": "Feature",
      "geometry": {
        "type": "Point",
        "coordinates": [
          -100.845008,
          46.89683
        ]
      },
      "properties": {
        "Class": "Golf",
        "Rank": "81",
        "Name": "81. Hawktree Golf Club",
        "Lat": 46.89683,
        "Long": -100.845008,
        "marker-color": "#007f00"
      }
    },
    {
      "type": "Feature",
      "geometry": {
        "type": "Point",
        "coordinates": [
          -75.107818,
          38.409818
        ]
      },
      "properties": {
        "Class": "Golf",
        "Rank": "82",
        "Name": "82. The Links at Lighthouse Sound",
        "Lat": 38.409818,
        "Long": -75.107818,
        "marker-color": "#007f00"
      }
    },
    {
      "type": "Feature",
      "geometry": {
        "type": "Point",
        "coordinates": [
          -85.321755,
          43.564223
        ]
      },
      "properties": {
        "Class": "Golf",
        "Rank": "83",
        "Name": "83. Tullymore Golf Resort",
        "Lat": 43.564223,
        "Long": -85.321755,
        "marker-color": "#007f00"
      }
    },
    {
      "type": "Feature",
      "geometry": {
        "type": "Point",
        "coordinates": [
          -87.433491,
          46.527217
        ]
      },
      "properties": {
        "Class": "Golf",
        "Rank": "84",
        "Name": "84. Marquette Golf Club (Greywalls)",
        "Lat": 46.527217,
        "Long": -87.433491,
        "marker-color": "#007f00"
      }
    },
    {
      "type": "Feature",
      "geometry": {
        "type": "Point",
        "coordinates": [
          -71.944227,
          41.490063
        ]
      },
      "properties": {
        "Class": "Golf",
        "Rank": "85",
        "Name": "85. Lake of Isles (North)",
        "Lat": 41.490063,
        "Long": -71.944227,
        "marker-color": "#007f00"
      }
    },
    {
      "type": "Feature",
      "geometry": {
        "type": "Point",
        "coordinates": [
          -78.756244,
          33.806663
        ]
      },
      "properties": {
        "Class": "Golf",
        "Rank": "86",
        "Name": "86. Barefoot Resort (Love)",
        "Lat": 33.806663,
        "Long": -78.756244,
        "marker-color": "#007f00"
      }
    },
    {
      "type": "Feature",
      "geometry": {
        "type": "Point",
        "coordinates": [
          -112.090073,
          33.084135
        ]
      },
      "properties": {
        "Class": "Golf",
        "Rank": "87",
        "Name": "87. Southern Dunes Golf Club",
        "Lat": 33.084135,
        "Long": -112.090073,
        "marker-color": "#007f00"
      }
    },
    {
      "type": "Feature",
      "geometry": {
        "type": "Point",
        "coordinates": [
          -93.194919,
          36.574147
        ]
      },
      "properties": {
        "Class": "Golf",
        "Rank": "88",
        "Name": "88. Branson Creek Golf Club",
        "Lat": 36.574147,
        "Long": -93.194919,
        "marker-color": "#007f00"
      }
    },
    {
      "type": "Feature",
      "geometry": {
        "type": "Point",
        "coordinates": [
          -70.888478,
          44.487934
        ]
      },
      "properties": {
        "Class": "Golf",
        "Rank": "89",
        "Name": "89. Sunday River Golf Club",
        "Lat": 44.487934,
        "Long": -70.888478,
        "marker-color": "#007f00"
      }
    },
    {
      "type": "Feature",
      "geometry": {
        "type": "Point",
        "coordinates": [
          -116.969419,
          47.42829
        ]
      },
      "properties": {
        "Class": "Golf",
        "Rank": "90",
        "Name": "90. Circling Raven Golf Club",
        "Lat": 47.42829,
        "Long": -116.969419,
        "marker-color": "#007f00"
      }
    },
    {
      "type": "Feature",
      "geometry": {
        "type": "Point",
        "coordinates": [
          -118.861974,
          34.305487
        ]
      },
      "properties": {
        "Class": "Golf",
        "Rank": "91",
        "Name": "91. Rustic Canyon Golf Course",
        "Lat": 34.305487,
        "Long": -118.861974,
        "marker-color": "#007f00"
      }
    },
    {
      "type": "Feature",
      "geometry": {
        "type": "Point",
        "coordinates": [
          -116.752911,
          47.664116
        ]
      },
      "properties": {
        "Class": "Golf",
        "Rank": "92",
        "Name": "92. Coeur d'Alene Resort",
        "Lat": 47.664116,
        "Long": -116.752911,
        "marker-color": "#007f00"
      }
    },
    {
      "type": "Feature",
      "geometry": {
        "type": "Point",
        "coordinates": [
          -111.918883,
          33.803739
        ]
      },
      "properties": {
        "Class": "Golf",
        "Rank": "93",
        "Name": "93. The Boulders Club (South)",
        "Lat": 33.803739,
        "Long": -111.918883,
        "marker-color": "#007f00"
      }
    },
    {
      "type": "Feature",
      "geometry": {
        "type": "Point",
        "coordinates": [
          -108.620549,
          39.054368
        ]
      },
      "properties": {
        "Class": "Golf",
        "Rank": "94",
        "Name": "94. The Golf Club at Redlands Mesa",
        "Lat": 39.054368,
        "Long": -108.620549,
        "marker-color": "#007f00"
      }
    },
    {
      "type": "Feature",
      "geometry": {
        "type": "Point",
        "coordinates": [
          -79.212821,
          35.397411
        ]
      },
      "properties": {
        "Class": "Golf",
        "Rank": "95",
        "Name": "95. Tobacco Road Golf Club",
        "Lat": 35.397411,
        "Long": -79.212821,
        "marker-color": "#007f00"
      }
    },
    {
      "type": "Feature",
      "geometry": {
        "type": "Point",
        "coordinates": [
          -79.504559,
          35.259777
        ]
      },
      "properties": {
        "Class": "Golf",
        "Rank": "96",
        "Name": "96. Dormie Club",
        "Lat": 35.259777,
        "Long": -79.504559,
        "marker-color": "#007f00"
      }
    },
    {
      "type": "Feature",
      "geometry": {
        "type": "Point",
        "coordinates": [
          -79.473553,
          35.181806
        ]
      },
      "properties": {
        "Class": "Golf",
        "Rank": "97",
        "Name": "97. Pinehurst Resort (No. 8)",
        "Lat": 35.181806,
        "Long": -79.473553,
        "marker-color": "#007f00"
      }
    },
    {
      "type": "Feature",
      "geometry": {
        "type": "Point",
        "coordinates": [
          -90.327551,
          42.374033
        ]
      },
      "properties": {
        "Class": "Golf",
        "Rank": "98",
        "Name": "98. The General at Eagle Ridge Resort",
        "Lat": 42.374033,
        "Long": -90.327551,
        "marker-color": "#007f00"
      }
    },
    {
      "type": "Feature",
      "geometry": {
        "type": "Point",
        "coordinates": [
          -111.898885,
          33.679408
        ]
      },
      "properties": {
        "Class": "Golf",
        "Rank": "99",
        "Name": "99. Grayhawk Golf Club (Talon)",
        "Lat": 33.679408,
        "Long": -111.898885,
        "marker-color": "#007f00"
      }
    },
    {
      "type": "Feature",
      "geometry": {
        "type": "Point",
        "coordinates": [
          -80.342159,
          25.818127
        ]
      },
      "properties": {
        "Class": "Golf",
        "Rank": "100",
        "Name": "100. Doral Resort (TPC Blue Monster)",
        "Lat": 25.818127,
        "Long": -80.342159,
        "marker-color": "#007f00"
      }
    }
  ]
}